{"region": {"center": {"latitude": 46.41015636807232, "longitude": -120.2786636352539}}, "total": 71, "businesses": [{"rating": 5.0, "review_count": 21, "name": "Los 3 Panchos", "transactions": [], "url": "https://www.yelp.com/biz/los-3-panchos-toppenish?adjust_creative=Ag61rKhxaceTrjRZiBYJXg&utm_campaign=yelp_api_v3&utm_medium=api_v3_business_search&utm_source=Ag61rKhxaceTrjRZiBYJXg", "price": "$", "distance": 5336.326123152796, "coordinates": {"latitude": 46.3748819415124, "longitude": -120.3258421379}, "alias": "los-3-panchos-toppenish", "image_url": "https://s3-media1.fl.yelpcdn.com/bphoto/q9g9QGdQUCFlUKsTOIgp0g/o.jpg", "categories": [{"alias": "mexican", "title": "Mexican"}, {"alias": "bbq", "title": "Barbeque"}], "display_phone": "(509) 985-1399", "phone": "+15099851399", "id": "fL8y4ueq7ubI38o5UQWCGw", "is_closed": false, "location": {"city": "Toppenish", "display_address": ["822-898 W 1st Ave", "Toppenish, WA 98948"], "country": "US", "address2": "", "address3": "", "state": "WA", "address1": "822-898 W 1st Ave", "zip_code": "98948"}}, {"rating": 4.0, "review_count": 39, "name": "El Porton", "transactions": [], "url": "https://www.yelp.com/biz/el-porton-zillah?adjust_creative=Ag61rKhxaceTrjRZiBYJXg&utm_campaign=yelp_api_v3&utm_medium=api_v3_business_search&utm_source=Ag61rKhxaceTrjRZiBYJXg", "price": "$$", "distance": 440.04766894334693, "coordinates": {"latitude": 46.406192779541, "longitude": -120.278427124023}, "alias": "el-porton-zillah", "image_url": "https://s3-media3.fl.yelpcdn.com/bphoto/0eu1LbLT38WWhZtsUWBZfg/o.jpg", "categories": [{"alias": "mexican", "title": "Mexican"}], "display_phone": "(509) 829-9100", "phone": "+15098299100", "id": "4Z_NLf842MsuOWkMhy-Pvg", "is_closed": false, "location": {"city": "Zillah", "display_address": ["905 Vintage Valley Pkwy", "Unit A", "Zillah, WA 98953"], "country": "US", "address2": "Unit A", "address3": "", "state": "WA", "address1": "905 Vintage Valley Pkwy", "zip_code": "98953"}}, {"rating": 3.5, "review_count": 38, "name": "The Old Warehouse Restaurant & Lounge / Event Center", "transactions": [], "url": "https://www.yelp.com/biz/the-old-warehouse-restaurant-and-lounge-event-center-zillah?adjust_creative=Ag61rKhxaceTrjRZiBYJXg&utm_campaign=yelp_api_v3&utm_medium=api_v3_business_search&utm_source=Ag61rKhxaceTrjRZiBYJXg", "price": "$$", "distance": 1821.5276625041356, "coordinates": {"latitude": 46.40041, "longitude": -120.25964}, "alias": "the-old-warehouse-restaurant-and-lounge-event-center-zillah", "image_url": "https://s3-media3.fl.yelpcdn.com/bphoto/i9CB5oKRfAl9OHLErQohYw/o.jpg", "categories": [{"alias": "lounges", "title": "Lounges"}, {"alias": "auctionhouses", "title": "Auction Houses"}, {"alias": "tradamerican", "title": "American (Traditional)"}], "display_phone": "(509) 314-6266", "phone": "+15093146266", "id": "vS-8rCE0uzvclkVIUhAtXQ", "is_closed": false, "location": {"city": "Zillah", "display_address": ["703 Railroad Ave", "Zillah, WA 98953"], "country": "US", "address2": null, "address3": "", "state": "WA", "address1": "703 Railroad Ave", "zip_code": "98953"}}, {"rating": 4.5, "review_count": 21, "name": "Las Palomas", "transactions": [], "url": "https://www.yelp.com/biz/las-palomas-toppenish?adjust_creative=Ag61rKhxaceTrjRZiBYJXg&utm_campaign=yelp_api_v3&utm_medium=api_v3_business_search&utm_source=Ag61rKhxaceTrjRZiBYJXg", "price": "$$", "distance": 4570.066845352978, "coordinates": {"latitude": 46.37827, "longitude": -120.31618}, "alias": "las-palomas-toppenish", "image_url": "https://s3-media4.fl.yelpcdn.com/bphoto/Q2EDDZjLtTnrCQeerNc6lw/o.jpg", "categories": [{"alias": "mexican", "title": "Mexican"}], "display_phone": "(509) 865-4133", "phone": "+15098654133", "id": "iONiZvIB7xi979MFITMfQA", "is_closed": false, "location": {"city": "Toppenish", "display_address": ["15 S Elm St", "Toppenish, WA 98948"], "country": "US", "address2": "", "address3": "", "state": "WA", "address1": "15 S Elm St", "zip_code": "98948"}}, {"rating": 4.5, "review_count": 15, "name": "Topp Thai Cuisine", "transactions": [], "url": "https://www.yelp.com/biz/topp-thai-cuisine-toppenish-3?adjust_creative=Ag61rKhxaceTrjRZiBYJXg&utm_campaign=yelp_api_v3&utm_medium=api_v3_business_search&utm_source=Ag61rKhxaceTrjRZiBYJXg", "distance": 4311.657109927998, "coordinates": {"latitude": 46.3772871934493, "longitude": -120.308489935021}, "alias": "topp-thai-cuisine-toppenish-3", "image_url": "https://s3-media4.fl.yelpcdn.com/bphoto/uPcAi0Bzy0VbIgYQ2GyWaA/o.jpg", "categories": [{"alias": "thai", "title": "Thai"}, {"alias": "salad", "title": "Salad"}, {"alias": "soup", "title": "Soup"}], "display_phone": "(509) 314-6556", "phone": "+15093146556", "id": "qiZQXWoDiiJMBt94v_E3wA", "is_closed": false, "location": {"city": "Toppenish", "display_address": ["13 E Toppenish Ave", "Toppenish, WA 98948"], "country": "US", "address2": "", "address3": "", "state": "WA", "address1": "13 E Toppenish Ave", "zip_code": "98948"}}, {"rating": 4.0, "review_count": 2, "name": "Squeeze Inn Restaurant", "transactions": ["restaurant_reservation"], "url": "https://www.yelp.com/biz/squeeze-inn-restaurant-zillah?adjust_creative=Ag61rKhxaceTrjRZiBYJXg&utm_campaign=yelp_api_v3&utm_medium=api_v3_business_search&utm_source=Ag61rKhxaceTrjRZiBYJXg", "distance": 1701.5176679800595, "coordinates": {"latitude": 46.4015884399414, "longitude": -120.260276794434}, "alias": "squeeze-inn-restaurant-zillah", "image_url": "https://s3-media4.fl.yelpcdn.com/bphoto/3Af7732az8DXFbz0NXqFSQ/o.jpg", "categories": [{"alias": "newamerican", "title": "American (New)"}], "display_phone": "(509) 790-7041", "phone": "+15097907041", "id": "bKvTWprA8alGsV19vnA2UQ", "is_closed": false, "location": {"city": "Zillah", "display_address": ["611 1st Ave", "Zillah, WA 98953"], "country": "US", "address2": "", "address3": "", "state": "WA", "address1": "611 1st Ave", "zip_code": "98953"}}, {"rating": 4.5, "review_count": 46, "name": "Two Mountain Winery", "transactions": [], "url": "https://www.yelp.com/biz/two-mountain-winery-zillah?adjust_creative=Ag61rKhxaceTrjRZiBYJXg&utm_campaign=yelp_api_v3&utm_medium=api_v3_business_search&utm_source=Ag61rKhxaceTrjRZiBYJXg", "price": "$$", "distance": 3010.8318101096347, "coordinates": {"latitude": 46.43677, "longitude": -120.27115}, "alias": "two-mountain-winery-zillah", "image_url": "https://s3-media3.fl.yelpcdn.com/bphoto/uFqV8TyHHjubhtRKk2g_7g/o.jpg", "categories": [{"alias": "wineries", "title": "Wineries"}], "display_phone": "(509) 829-3900", "phone": "+15098293900", "id": "r2zCdBLdBFzaePh5UmXgAw", "is_closed": false, "location": {"city": "Zillah", "display_address": ["2151 Cheyne Rd", "Zillah, WA 98953"], "country": "US", "address2": "", "address3": "", "state": "WA", "address1": "2151 Cheyne Rd", "zip_code": "98953"}}, {"rating": 5.0, "review_count": 3, "name": "Lupe's Kitchen", "transactions": [], "url": "https://www.yelp.com/biz/lupes-kitchen-toppenish?adjust_creative=Ag61rKhxaceTrjRZiBYJXg&utm_campaign=yelp_api_v3&utm_medium=api_v3_business_search&utm_source=Ag61rKhxaceTrjRZiBYJXg", "price": "$", "distance": 4446.796150009021, "coordinates": {"latitude": 46.3765305934345, "longitude": -120.310049519363}, "alias": "lupes-kitchen-toppenish", "image_url": "https://s3-media2.fl.yelpcdn.com/bphoto/U4yJoKNXWAWWpL1G1PtMXg/o.jpg", "categories": [{"alias": "mexican", "title": "Mexican"}], "display_phone": "(509) 314-6644", "phone": "+15093146644", "id": "_pnaYbsAj_wl0KThcxIG8g", "is_closed": false, "location": {"city": "Toppenish", "display_address": ["9 A S Toppenish Ave", "Toppenish, WA 98948"], "country": "US", "address2": "", "address3": null, "state": "WA", "address1": "9 A S Toppenish Ave", "zip_code": "98948"}}, {"rating": 4.5, "review_count": 4, "name": "Taqueria La Placita", "transactions": [], "url": "https://www.yelp.com/biz/taqueria-la-placita-zillah?adjust_creative=Ag61rKhxaceTrjRZiBYJXg&utm_campaign=yelp_api_v3&utm_medium=api_v3_business_search&utm_source=Ag61rKhxaceTrjRZiBYJXg", "distance": 1580.67719744396, "coordinates": {"latitude": 46.4021199, "longitude": -120.26173}, "alias": "taqueria-la-placita-zillah", "image_url": "https://s3-media1.fl.yelpcdn.com/bphoto/h_eymtprWyoZ1bcZuVoaWA/o.jpg", "categories": [{"alias": "mexican", "title": "Mexican"}], "display_phone": "(509) 314-6455", "phone": "+15093146455", "id": "3CiBNmafUZxrqfCe6b3bWg", "is_closed": false, "location": {"city": "Zillah", "display_address": ["505 1st Ave", "Zillah, WA 98953"], "country": "US", "address2": "", "address3": null, "state": "WA", "address1": "505 1st Ave", "zip_code": "98953"}}, {"rating": 3.0, "review_count": 10, "name": "Kim's Got Smoke", "transactions": [], "url": "https://www.yelp.com/biz/kims-got-smoke-zillah?adjust_creative=Ag61rKhxaceTrjRZiBYJXg&utm_campaign=yelp_api_v3&utm_medium=api_v3_business_search&utm_source=Ag61rKhxaceTrjRZiBYJXg", "price": "$$", "distance": 6285.668463903256, "coordinates": {"latitude": 46.4637870788574, "longitude": -120.30500793457}, "alias": "kims-got-smoke-zillah", "image_url": "https://s3-media1.fl.yelpcdn.com/bphoto/yGko7NpZ1wYgCAS7GZbM1g/o.jpg", "categories": [{"alias": "bbq", "title": "Barbeque"}], "display_phone": "", "phone": "", "id": "PzDZ7u4ykzVUGNvEGlj0eg", "is_closed": false, "location": {"city": "Zillah", "display_address": ["5330 Lombard Loop Rd", "Zillah, WA 98953"], "country": "US", "address2": "", "address3": "", "state": "WA", "address1": "5330 Lombard Loop Rd", "zip_code": "98953"}}, {"rating": 4.5, "review_count": 11, "name": "Taqueria Mexicana", "transactions": [], "url": "https://www.yelp.com/biz/taqueria-mexicana-toppenish?adjust_creative=Ag61rKhxaceTrjRZiBYJXg&utm_campaign=yelp_api_v3&utm_medium=api_v3_business_search&utm_source=Ag61rKhxaceTrjRZiBYJXg", "price": "$$", "distance": 4553.873904370353, "coordinates": {"latitude": 46.3754615783691, "longitude": -120.313209533691}, "alias": "taqueria-mexicana-toppenish", "image_url": "https://s3-media1.fl.yelpcdn.com/bphoto/9sN7-7P42kdi6kIOZXJ6iw/o.jpg", "categories": [{"alias": "mexican", "title": "Mexican"}], "display_phone": "(509) 865-7116", "phone": "+15098657116", "id": "qoHnKYrNXP59KpQGO3LgrQ", "is_closed": false, "location": {"city": "Toppenish", "display_address": ["105 1/2 S Alder St", "Toppenish, WA 98948"], "country": "US", "address2": "", "address3": "", "state": "WA", "address1": "105 1/2 S Alder St", "zip_code": "98948"}}, {"rating": 5.0, "review_count": 3, "name": "Mi Pueblito", "transactions": [], "url": "https://www.yelp.com/biz/mi-pueblito-toppenish?adjust_creative=Ag61rKhxaceTrjRZiBYJXg&utm_campaign=yelp_api_v3&utm_medium=api_v3_business_search&utm_source=Ag61rKhxaceTrjRZiBYJXg", "distance": 4310.150989193876, "coordinates": {"latitude": 46.3774423130116, "longitude": -120.308809769656}, "alias": "mi-pueblito-toppenish", "image_url": "https://s3-media4.fl.yelpcdn.com/bphoto/BmPYzAuLSCMaMvEcPWagTA/o.jpg", "categories": [{"alias": "mexican", "title": "Mexican"}], "display_phone": "(509) 865-1010", "phone": "+15098651010", "id": "UvhMrU4idpKD6FqQ4juGNA", "is_closed": false, "location": {"city": "Toppenish", "display_address": ["479 E Toppenish Ave", "Toppenish, WA 98948"], "country": "US", "address2": "", "address3": null, "state": "WA", "address1": "479 E Toppenish Ave", "zip_code": "98948"}}, {"rating": 4.5, "review_count": 5, "name": "Best Teriyaki & Yakisoba Express", "transactions": [], "url": "https://www.yelp.com/biz/best-teriyaki-and-yakisoba-express-toppenish?adjust_creative=Ag61rKhxaceTrjRZiBYJXg&utm_campaign=yelp_api_v3&utm_medium=api_v3_business_search&utm_source=Ag61rKhxaceTrjRZiBYJXg", "distance": 4882.108084195642, "coordinates": {"latitude": 46.375226509785, "longitude": -120.317232459784}, "alias": "best-teriyaki-and-yakisoba-express-toppenish", "image_url": "https://s3-media3.fl.yelpcdn.com/bphoto/CRjCM4cSSPAJpezrHUICNQ/o.jpg", "categories": [{"alias": "japanese", "title": "Japanese"}], "display_phone": "(509) 314-6442", "phone": "+15093146442", "id": "j72NvtfnbQmjg48ICq-ejA", "is_closed": false, "location": {"city": "Toppenish", "display_address": ["501 W 1st Ave", "Toppenish, WA 98948"], "country": "US", "address2": "", "address3": null, "state": "WA", "address1": "501 W 1st Ave", "zip_code": "98948"}}, {"rating": 3.5, "review_count": 4, "name": "Stonehenge Tavern", "transactions": [], "url": "https://www.yelp.com/biz/stonehenge-tavern-zillah?adjust_creative=Ag61rKhxaceTrjRZiBYJXg&utm_campaign=yelp_api_v3&utm_medium=api_v3_business_search&utm_source=Ag61rKhxaceTrjRZiBYJXg", "price": "$$", "distance": 1660.4005582567042, "coordinates": {"latitude": 46.40175, "longitude": -120.26074}, "alias": "stonehenge-tavern-zillah", "image_url": "https://s3-media4.fl.yelpcdn.com/bphoto/BAw00hkgbYtzvCicylfgqQ/o.jpg", "categories": [{"alias": "bars", "title": "Bars"}, {"alias": "triviahosts", "title": "Trivia Hosts"}, {"alias": "tradamerican", "title": "American (Traditional)"}], "display_phone": "(509) 829-9411", "phone": "+15098299411", "id": "g7zQTesiS6uzbuGU8UoE2g", "is_closed": false, "location": {"city": "Zillah", "display_address": ["603 1st Ave", "Zillah, WA 98953"], "country": "US", "address2": "", "address3": "", "state": "WA", "address1": "603 1st Ave", "zip_code": "98953"}}, {"rating": 5.0, "review_count": 18, "name": "VanArnam Vineyards", "transactions": [], "url": "https://www.yelp.com/biz/vanarnam-vineyards-zillah-3?adjust_creative=Ag61rKhxaceTrjRZiBYJXg&utm_campaign=yelp_api_v3&utm_medium=api_v3_business_search&utm_source=Ag61rKhxaceTrjRZiBYJXg", "price": "$$", "distance": 4395.510156936867, "coordinates": {"latitude": 46.44966, "longitude": -120.29611}, "alias": "vanarnam-vineyards-zillah-3", "image_url": "https://s3-media3.fl.yelpcdn.com/bphoto/RVxEHG1caBLzTV1c7Sbx2Q/o.jpg", "categories": [{"alias": "wineries", "title": "Wineries"}], "display_phone": "(360) 904-4800", "phone": "+13609044800", "id": "ChMkw-Gw6A4xk0eub16kGw", "is_closed": false, "location": {"city": "Zillah", "display_address": ["1305 Gilbert Rd", "Zillah, WA 98953"], "country": "US", "address2": null, "address3": "", "state": "WA", "address1": "1305 Gilbert Rd", "zip_code": "98953"}}, {"rating": 2.0, "review_count": 12, "name": "McDonald's", "transactions": [], "url": "https://www.yelp.com/biz/mcdonalds-zillah?adjust_creative=Ag61rKhxaceTrjRZiBYJXg&utm_campaign=yelp_api_v3&utm_medium=api_v3_business_search&utm_source=Ag61rKhxaceTrjRZiBYJXg", "price": "$", "distance": 689.4283886419316, "coordinates": {"latitude": 46.4041943541632, "longitude": -120.276195332408}, "alias": "mcdonalds-zillah", "image_url": "https://s3-media3.fl.yelpcdn.com/bphoto/1tqteUzYquDzK8jl4dmsww/o.jpg", "categories": [{"alias": "hotdogs", "title": "Fast Food"}, {"alias": "burgers", "title": "Burgers"}, {"alias": "coffee", "title": "Coffee & Tea"}], "display_phone": "(509) 829-5005", "phone": "+15098295005", "id": "uelTWB5D_-huin-dm7nhjQ", "is_closed": false, "location": {"city": "Zillah", "display_address": ["820 Zillah West Rd", "Zillah, WA 98953"], "country": "US", "address2": "", "address3": "", "state": "WA", "address1": "820 Zillah West Rd", "zip_code": "98953"}}, {"rating": 5.0, "review_count": 6, "name": "Blue Sky Market", "transactions": [], "url": "https://www.yelp.com/biz/blue-sky-market-toppenish?adjust_creative=Ag61rKhxaceTrjRZiBYJXg&utm_campaign=yelp_api_v3&utm_medium=api_v3_business_search&utm_source=Ag61rKhxaceTrjRZiBYJXg", "price": "$", "distance": 4062.4256935927947, "coordinates": {"latitude": 46.380241394043, "longitude": -120.309074401855}, "alias": "blue-sky-market-toppenish", "image_url": "https://s3-media3.fl.yelpcdn.com/bphoto/4w9Vx-vyu3OkAambRvL5ZA/o.jpg", "categories": [{"alias": "grocery", "title": "Grocery"}], "display_phone": "(509) 865-3726", "phone": "+15098653726", "id": "tRtGuGV4Wzt_e_tgfUarGA", "is_closed": false, "location": {"city": "Toppenish", "display_address": ["116 Chehalis Ave", "Toppenish, WA 98948"], "country": "US", "address2": "", "address3": "", "state": "WA", "address1": "116 Chehalis Ave", "zip_code": "98948"}}, {"rating": 3.0, "review_count": 9, "name": "El Ranchito Mexican Restaurant", "transactions": [], "url": "https://www.yelp.com/biz/el-ranchito-mexican-restaurant-zillah?adjust_creative=Ag61rKhxaceTrjRZiBYJXg&utm_campaign=yelp_api_v3&utm_medium=api_v3_business_search&utm_source=Ag61rKhxaceTrjRZiBYJXg", "distance": 2472.3937171035964, "coordinates": {"latitude": 46.3971121711553, "longitude": -120.252551080647}, "alias": "el-ranchito-mexican-restaurant-zillah", "image_url": "https://s3-media3.fl.yelpcdn.com/bphoto/3dqq0yElbg4fTCdAwB0_RQ/o.jpg", "categories": [{"alias": "mexican", "title": "Mexican"}], "display_phone": "(509) 430-8350", "phone": "+15094308350", "id": "GjOv2p0QulqnRjlknHSdKg", "is_closed": false, "location": {"city": "Zillah", "display_address": ["1319 1st Ave", "Zillah, WA 98953"], "country": "US", "address2": "", "address3": null, "state": "WA", "address1": "1319 1st Ave", "zip_code": "98953"}}, {"rating": 4.5, "review_count": 2, "name": "China Mex", "transactions": [], "url": "https://www.yelp.com/biz/china-mex-toppenish?adjust_creative=Ag61rKhxaceTrjRZiBYJXg&utm_campaign=yelp_api_v3&utm_medium=api_v3_business_search&utm_source=Ag61rKhxaceTrjRZiBYJXg", "price": "$", "distance": 4662.893583007486, "coordinates": {"latitude": 46.374871507287, "longitude": -120.311169996858}, "alias": "china-mex-toppenish", "image_url": "https://s3-media3.fl.yelpcdn.com/bphoto/rI1S4vzEgIstLtJ2iuP3kg/o.jpg", "categories": [{"alias": "mexican", "title": "Mexican"}, {"alias": "chinese", "title": "Chinese"}], "display_phone": "(509) 865-3747", "phone": "+15098653747", "id": "btHLxRZmwowR15RAshPRAQ", "is_closed": false, "location": {"city": "Toppenish", "display_address": ["208 S Toppenish Ave", "Toppenish, WA 98948"], "country": "US", "address2": null, "address3": "", "state": "WA", "address1": "208 S Toppenish Ave", "zip_code": "98948"}}, {"rating": 4.5, "review_count": 11, "name": "JBell Cellars", "transactions": [], "url": "https://www.yelp.com/biz/jbell-cellars-zillah?adjust_creative=Ag61rKhxaceTrjRZiBYJXg&utm_campaign=yelp_api_v3&utm_medium=api_v3_business_search&utm_source=Ag61rKhxaceTrjRZiBYJXg", "price": "$$", "distance": 4398.9105983586705, "coordinates": {"latitude": 46.4360809326172, "longitude": -120.322052001953}, "alias": "jbell-cellars-zillah", "image_url": "https://s3-media3.fl.yelpcdn.com/bphoto/5ZcfQWjZcApy7TLxOVOH6g/o.jpg", "categories": [{"alias": "wineries", "title": "Wineries"}], "display_phone": "(509) 865-1935", "phone": "+15098651935", "id": "MMwBxheYBureKnxsLTBldg", "is_closed": false, "location": {"city": "Zillah", "display_address": ["73 Knight Hill Rd", "Zillah, WA 98953"], "country": "US", "address2": "", "address3": "", "state": "WA", "address1": "73 Knight Hill Rd", "zip_code": "98953"}}, {"rating": 3.0, "review_count": 24, "name": "The Branding Iron Restaurant", "transactions": [], "url": "https://www.yelp.com/biz/the-branding-iron-restaurant-toppenish?adjust_creative=Ag61rKhxaceTrjRZiBYJXg&utm_campaign=yelp_api_v3&utm_medium=api_v3_business_search&utm_source=Ag61rKhxaceTrjRZiBYJXg", "price": "$$", "distance": 5636.565973425361, "coordinates": {"latitude": 46.36813, "longitude": -120.31976}, "alias": "the-branding-iron-restaurant-toppenish", "image_url": "https://s3-media2.fl.yelpcdn.com/bphoto/KeTutFarKknF-FI9rJyuCA/o.jpg", "categories": [{"alias": "tradamerican", "title": "American (Traditional)"}, {"alias": "breakfast_brunch", "title": "Breakfast & Brunch"}, {"alias": "sandwiches", "title": "Sandwiches"}], "display_phone": "(509) 865-5440", "phone": "+15098655440", "id": "XzM0KJuRNfLS9HVEXcEPwQ", "is_closed": false, "location": {"city": "Toppenish", "display_address": ["61311 US Hwy 97", "Toppenish, WA 98948"], "country": "US", "address2": "", "address3": "", "state": "WA", "address1": "61311 US Hwy 97", "zip_code": "98948"}}, {"rating": 4.0, "review_count": 6, "name": "Severino Cellars", "transactions": [], "url": "https://www.yelp.com/biz/severino-cellars-zillah?adjust_creative=Ag61rKhxaceTrjRZiBYJXg&utm_campaign=yelp_api_v3&utm_medium=api_v3_business_search&utm_source=Ag61rKhxaceTrjRZiBYJXg", "price": "$$", "distance": 3014.1069533859823, "coordinates": {"latitude": 46.396156, "longitude": -120.245002}, "alias": "severino-cellars-zillah", "image_url": "https://s3-media4.fl.yelpcdn.com/bphoto/ZsU4sHcbuAfOG9gw_jEt4A/o.jpg", "categories": [{"alias": "wineries", "title": "Wineries"}], "display_phone": "(509) 829-3800", "phone": "+15098293800", "id": "IREqyjaqTJEoxqIIWwSgIQ", "is_closed": false, "location": {"city": "Zillah", "display_address": ["1717 1st Ave", "Zillah, WA 98953"], "country": "US", "address2": null, "address3": null, "state": "WA", "address1": "1717 1st Ave", "zip_code": "98953"}}, {"rating": 3.5, "review_count": 36, "name": "Bonair Winery", "transactions": [], "url": "https://www.yelp.com/biz/bonair-winery-zillah?adjust_creative=Ag61rKhxaceTrjRZiBYJXg&utm_campaign=yelp_api_v3&utm_medium=api_v3_business_search&utm_source=Ag61rKhxaceTrjRZiBYJXg", "price": "$$", "distance": 2174.850476650134, "coordinates": {"latitude": 46.426399230957, "longitude": -120.294746398926}, "alias": "bonair-winery-zillah", "image_url": "https://s3-media1.fl.yelpcdn.com/bphoto/-CZCO0RRbSZZk4W8JVkOWg/o.jpg", "categories": [{"alias": "wineries", "title": "Wineries"}, {"alias": "venues", "title": "Venues & Event Spaces"}, {"alias": "tours", "title": "Tours"}], "display_phone": "(509) 829-6027", "phone": "+15098296027", "id": "WM2azPqQxPoeViyfnKZ4eg", "is_closed": false, "location": {"city": "Zillah", "display_address": ["500 S Bonair Rd", "Zillah, WA 98953"], "country": "US", "address2": "", "address3": "", "state": "WA", "address1": "500 S Bonair Rd", "zip_code": "98953"}}, {"rating": 4.5, "review_count": 16, "name": "Knight Hill Winery", "transactions": [], "url": "https://www.yelp.com/biz/knight-hill-winery-zillah?adjust_creative=Ag61rKhxaceTrjRZiBYJXg&utm_campaign=yelp_api_v3&utm_medium=api_v3_business_search&utm_source=Ag61rKhxaceTrjRZiBYJXg", "price": "$$", "distance": 6285.668463903256, "coordinates": {"latitude": 46.4613, "longitude": -120.30752}, "alias": "knight-hill-winery-zillah", "image_url": "https://s3-media4.fl.yelpcdn.com/bphoto/MF5ccWxIOh5vVl3o-Mjqyg/o.jpg", "categories": [{"alias": "wineries", "title": "Wineries"}], "display_phone": "(509) 865-5654", "phone": "+15098655654", "id": "WOA1U5fwTDg8-5CSDF-q0Q", "is_closed": false, "location": {"city": "Zillah", "display_address": ["5330 Lombard Lp Rd", "Zillah, WA 98953"], "country": "US", "address2": "", "address3": "", "state": "WA", "address1": "5330 Lombard Lp Rd", "zip_code": "98953"}}, {"rating": 3.5, "review_count": 3, "name": "Melissa's Tacos", "transactions": [], "url": "https://www.yelp.com/biz/melissas-tacos-toppenish?adjust_creative=Ag61rKhxaceTrjRZiBYJXg&utm_campaign=yelp_api_v3&utm_medium=api_v3_business_search&utm_source=Ag61rKhxaceTrjRZiBYJXg", "price": "$", "distance": 5367.120435929379, "coordinates": {"latitude": 46.3749396553428, "longitude": -120.326521803585}, "alias": "melissas-tacos-toppenish", "image_url": "https://s3-media1.fl.yelpcdn.com/bphoto/XgpCzg3xruwCmNKIOikXiA/o.jpg", "categories": [{"alias": "mexican", "title": "Mexican"}, {"alias": "catering", "title": "Caterers"}], "display_phone": "(509) 314-6044", "phone": "+15093146044", "id": "noVDn10MrwOXftc9d-vW7Q", "is_closed": false, "location": {"city": "Toppenish", "display_address": ["841 W First Ave", "Toppenish, WA 98948"], "country": "US", "address2": "", "address3": "", "state": "WA", "address1": "841 W First Ave", "zip_code": "98948"}}, {"rating": 4.5, "review_count": 15, "name": "Cultura Wine", "transactions": [], "url": "https://www.yelp.com/biz/cultura-wine-zillah?adjust_creative=Ag61rKhxaceTrjRZiBYJXg&utm_campaign=yelp_api_v3&utm_medium=api_v3_business_search&utm_source=Ag61rKhxaceTrjRZiBYJXg", "price": "$$", "distance": 3735.4732693383203, "coordinates": {"latitude": 46.43324, "longitude": -120.24325}, "alias": "cultura-wine-zillah", "image_url": "https://s3-media1.fl.yelpcdn.com/bphoto/4iC8qMUaTevvuKzrPHgWnA/o.jpg", "categories": [{"alias": "wineries", "title": "Wineries"}], "display_phone": "", "phone": "", "id": "8X6H3vnuB7IL36oWYfCrMg", "is_closed": false, "location": {"city": "Zillah", "display_address": ["3601 Highland Dr", "Zillah, WA 98953"], "country": "US", "address2": "", "address3": "", "state": "WA", "address1": "3601 Highland Dr", "zip_code": "98953"}}, {"rating": 4.0, "review_count": 11, "name": "Dineen Vineyards", "transactions": [], "url": "https://www.yelp.com/biz/dineen-vineyards-zillah?adjust_creative=Ag61rKhxaceTrjRZiBYJXg&utm_campaign=yelp_api_v3&utm_medium=api_v3_business_search&utm_source=Ag61rKhxaceTrjRZiBYJXg", "price": "$$", "distance": 4207.279915871841, "coordinates": {"latitude": 46.4468841552734, "longitude": -120.265472412109}, "alias": "dineen-vineyards-zillah", "image_url": "https://s3-media1.fl.yelpcdn.com/bphoto/dkFQjQykUG4M_2LtrkfhzA/o.jpg", "categories": [{"alias": "wineries", "title": "Wineries"}], "display_phone": "(206) 276-4287", "phone": "+12062764287", "id": "vsXOimfy5VtpPyLs839IPw", "is_closed": false, "location": {"city": "Zillah", "display_address": ["2980 Gilbert Rd", "Zillah, WA 98953"], "country": "US", "address2": "", "address3": "", "state": "WA", "address1": "2980 Gilbert Rd", "zip_code": "98953"}}, {"rating": 5.0, "review_count": 2, "name": "Victoria's", "transactions": [], "url": "https://www.yelp.com/biz/victorias-zillah?adjust_creative=Ag61rKhxaceTrjRZiBYJXg&utm_campaign=yelp_api_v3&utm_medium=api_v3_business_search&utm_source=Ag61rKhxaceTrjRZiBYJXg", "distance": 587.6951691347713, "coordinates": {"latitude": 46.40584, "longitude": -120.28311}, "alias": "victorias-zillah", "image_url": "https://s3-media3.fl.yelpcdn.com/bphoto/zQvTn0rLg-f-kp6wgM6fEg/o.jpg", "categories": [{"alias": "mexican", "title": "Mexican"}], "display_phone": "(509) 314-6565", "phone": "+15093146565", "id": "SRjvOyMb1f5OtloMxnwEAw", "is_closed": false, "location": {"city": "Zillah", "display_address": ["1002 Vintage Valley Pkwy", "Zillah, WA 98953"], "country": "US", "address2": null, "address3": "", "state": "WA", "address1": "1002 Vintage Valley Pkwy", "zip_code": "98953"}}, {"rating": 4.5, "review_count": 29, "name": "Portteus Vineyards & Winery", "transactions": [], "url": "https://www.yelp.com/biz/portteus-vineyards-and-winery-zillah?adjust_creative=Ag61rKhxaceTrjRZiBYJXg&utm_campaign=yelp_api_v3&utm_medium=api_v3_business_search&utm_source=Ag61rKhxaceTrjRZiBYJXg", "price": "$$", "distance": 6546.411467669774, "coordinates": {"latitude": 46.4393463134766, "longitude": -120.20719909668}, "alias": "portteus-vineyards-and-winery-zillah", "image_url": "https://s3-media2.fl.yelpcdn.com/bphoto/cznwnm54oD1gPZ5Pet-yug/o.jpg", "categories": [{"alias": "wineries", "title": "Wineries"}], "display_phone": "(509) 829-6970", "phone": "+15098296970", "id": "bql9MHS1kHnGncGm8W1nYg", "is_closed": false, "location": {"city": "Zillah", "display_address": ["5201 Highland Dr", "Zillah, WA 98953"], "country": "US", "address2": "", "address3": "", "state": "WA", "address1": "5201 Highland Dr", "zip_code": "98953"}}, {"rating": 4.0, "review_count": 1, "name": "Fry Bread Stand", "transactions": [], "url": "https://www.yelp.com/biz/fry-bread-stand-toppenish?adjust_creative=Ag61rKhxaceTrjRZiBYJXg&utm_campaign=yelp_api_v3&utm_medium=api_v3_business_search&utm_source=Ag61rKhxaceTrjRZiBYJXg", "price": "$", "distance": 6075.8726578996275, "coordinates": {"latitude": 46.37506, "longitude": -120.33934}, "alias": "fry-bread-stand-toppenish", "image_url": "https://s3-media2.fl.yelpcdn.com/bphoto/O4t1DiWH1m9d68aHvMlEEw/o.jpg", "categories": [{"alias": "foodstands", "title": "Food Stands"}, {"alias": "importedfood", "title": "Imported Food"}], "display_phone": "", "phone": "", "id": "_tN-Y7ABwBdhWZg7UKoIEg", "is_closed": false, "location": {"city": "Toppenish", "display_address": ["Fort Rd & Teo Rd", "In Parking Lot", "Toppenish, WA 98948"], "country": "US", "address2": "", "address3": "In Parking Lot", "state": "WA", "address1": "Fort Rd & Teo Rd", "zip_code": "98948"}}, {"rating": 4.0, "review_count": 1, "name": "Blue Barn Farm", "transactions": [], "url": "https://www.yelp.com/biz/blue-barn-farm-zillah?adjust_creative=Ag61rKhxaceTrjRZiBYJXg&utm_campaign=yelp_api_v3&utm_medium=api_v3_business_search&utm_source=Ag61rKhxaceTrjRZiBYJXg", "price": "$", "distance": 2344.3813916220656, "coordinates": {"latitude": 46.4263802, "longitude": -120.2607422}, "alias": "blue-barn-farm-zillah", "image_url": "", "categories": [{"alias": "cheese", "title": "Cheese Shops"}], "display_phone": "(509) 829-5857", "phone": "+15098295857", "id": "JEwgfr96DraHhBgK63cvuQ", "is_closed": false, "location": {"city": "Zillah", "display_address": ["1791 Roza Dr", "Zillah, WA 98953"], "country": "US", "address2": "", "address3": "", "state": "WA", "address1": "1791 Roza Dr", "zip_code": "98953"}}, {"rating": 2.0, "review_count": 1, "name": "Pizza Hut", "transactions": [], "url": "https://www.yelp.com/biz/pizza-hut-zillah?adjust_creative=Ag61rKhxaceTrjRZiBYJXg&utm_campaign=yelp_api_v3&utm_medium=api_v3_business_search&utm_source=Ag61rKhxaceTrjRZiBYJXg", "price": "$", "distance": 593.1402151941178, "coordinates": {"latitude": 46.40517, "longitude": -120.27575}, "alias": "pizza-hut-zillah", "image_url": "https://s3-media1.fl.yelpcdn.com/bphoto/pbljJekgZfsyuMXc6mlSmA/o.jpg", "categories": [{"alias": "pizza", "title": "Pizza"}], "display_phone": "(509) 829-6137", "phone": "+15098296137", "id": "3cgtKXiBTIeQQvRRs6YR4Q", "is_closed": false, "location": {"city": "Zillah", "display_address": ["823 Zillah West Road, Suite 200", "Zillah, WA 98953"], "country": "US", "address2": "", "address3": null, "state": "WA", "address1": "823 Zillah West Road, Suite 200", "zip_code": "98953"}}, {"rating": 3.0, "review_count": 18, "name": "Dad's Family Restaurant", "transactions": [], "url": "https://www.yelp.com/biz/dads-family-restaurant-toppenish?adjust_creative=Ag61rKhxaceTrjRZiBYJXg&utm_campaign=yelp_api_v3&utm_medium=api_v3_business_search&utm_source=Ag61rKhxaceTrjRZiBYJXg", "price": "$", "distance": 5121.243554118616, "coordinates": {"latitude": 46.3743427, "longitude": -120.3203995}, "alias": "dads-family-restaurant-toppenish", "image_url": "https://s3-media2.fl.yelpcdn.com/bphoto/gjg8uT3MVZwEWgmLMqLD7g/o.jpg", "categories": [{"alias": "restaurants", "title": "Restaurants"}], "display_phone": "(509) 865-4349", "phone": "+15098654349", "id": "f-DkL0qRxfA-bRVwy3G0QQ", "is_closed": false, "location": {"city": "Toppenish", "display_address": ["433 S Elm St", "Toppenish, WA 98948"], "country": "US", "address2": "", "address3": "", "state": "WA", "address1": "433 S Elm St", "zip_code": "98948"}}, {"rating": 3.5, "review_count": 14, "name": "Maison De Padgett", "transactions": [], "url": "https://www.yelp.com/biz/maison-de-padgett-zillah?adjust_creative=Ag61rKhxaceTrjRZiBYJXg&utm_campaign=yelp_api_v3&utm_medium=api_v3_business_search&utm_source=Ag61rKhxaceTrjRZiBYJXg", "price": "$$", "distance": 2794.122315388638, "coordinates": {"latitude": 46.4321556091309, "longitude": -120.261077880859}, "alias": "maison-de-padgett-zillah", "image_url": "https://s3-media1.fl.yelpcdn.com/bphoto/WVupQOgyRqo0Kfw49TZERA/o.jpg", "categories": [{"alias": "wineries", "title": "Wineries"}], "display_phone": "(509) 829-6412", "phone": "+15098296412", "id": "CxXOmf0aCak_koCkNbY6cQ", "is_closed": false, "location": {"city": "Zillah", "display_address": ["2231 Roza Dr", "Zillah, WA 98953"], "country": "US", "address2": "", "address3": "", "state": "WA", "address1": "2231 Roza Dr", "zip_code": "98953"}}, {"rating": 4.5, "review_count": 3, "name": "The Fuel Yard", "transactions": [], "url": "https://www.yelp.com/biz/the-fuel-yard-zillah?adjust_creative=Ag61rKhxaceTrjRZiBYJXg&utm_campaign=yelp_api_v3&utm_medium=api_v3_business_search&utm_source=Ag61rKhxaceTrjRZiBYJXg", "price": "$", "distance": 1369.619911002508, "coordinates": {"latitude": 46.4024925231934, "longitude": -120.264678955078}, "alias": "the-fuel-yard-zillah", "image_url": "https://s3-media3.fl.yelpcdn.com/bphoto/Gs4UmclIx4l4mB9txtq5AQ/o.jpg", "categories": [{"alias": "coffee", "title": "Coffee & Tea"}], "display_phone": "(509) 829-3007", "phone": "+15098293007", "id": "BN1XKNHeRC-t9VjKKy9fdA", "is_closed": false, "location": {"city": "Zillah", "display_address": ["314 1st Ave", "Zillah, WA 98953"], "country": "US", "address2": "", "address3": "", "state": "WA", "address1": "314 1st Ave", "zip_code": "98953"}}, {"rating": 3.5, "review_count": 10, "name": "Lotus Chinese Restaurant", "transactions": [], "url": "https://www.yelp.com/biz/lotus-chinese-restaurant-toppenish?adjust_creative=Ag61rKhxaceTrjRZiBYJXg&utm_campaign=yelp_api_v3&utm_medium=api_v3_business_search&utm_source=Ag61rKhxaceTrjRZiBYJXg", "price": "$$", "distance": 5344.4610758512235, "coordinates": {"latitude": 46.3754615783691, "longitude": -120.32689666748}, "alias": "lotus-chinese-restaurant-toppenish", "image_url": "https://s3-media2.fl.yelpcdn.com/bphoto/MguUvV4DPfShXJVl74JShA/o.jpg", "categories": [{"alias": "chinese", "title": "Chinese"}], "display_phone": "(509) 865-4552", "phone": "+15098654552", "id": "UmiVOHRH77-IJPCpwwbezg", "is_closed": false, "location": {"city": "Toppenish", "display_address": ["901 W 1st Ave", "Toppenish, WA 98948"], "country": "US", "address2": "", "address3": "", "state": "WA", "address1": "901 W 1st Ave", "zip_code": "98948"}}, {"rating": 4.5, "review_count": 2, "name": "El Porvenir", "transactions": [], "url": "https://www.yelp.com/biz/el-porvenir-toppenish?adjust_creative=Ag61rKhxaceTrjRZiBYJXg&utm_campaign=yelp_api_v3&utm_medium=api_v3_business_search&utm_source=Ag61rKhxaceTrjRZiBYJXg", "price": "$", "distance": 4678.980944476279, "coordinates": {"latitude": 46.374698638916, "longitude": -120.311515808105}, "alias": "el-porvenir-toppenish", "image_url": "https://s3-media4.fl.yelpcdn.com/bphoto/OfIc2d-OnbQAlIWAHn2F8w/o.jpg", "categories": [{"alias": "bakeries", "title": "Bakeries"}], "display_phone": "(509) 865-8837", "phone": "+15098658837", "id": "0r2wjBywXZe18RGUtgmy_w", "is_closed": false, "location": {"city": "Toppenish", "display_address": ["209 S Toppenish Ave", "Toppenish, WA 98948"], "country": "US", "address2": "", "address3": "", "state": "WA", "address1": "209 S Toppenish Ave", "zip_code": "98948"}}, {"rating": 2.5, "review_count": 10, "name": "Dairy Queen", "transactions": [], "url": "https://www.yelp.com/biz/dairy-queen-toppenish?adjust_creative=Ag61rKhxaceTrjRZiBYJXg&utm_campaign=yelp_api_v3&utm_medium=api_v3_business_search&utm_source=Ag61rKhxaceTrjRZiBYJXg", "price": "$", "distance": 4784.501381756855, "coordinates": {"latitude": 46.3752555847168, "longitude": -120.315277099609}, "alias": "dairy-queen-toppenish", "image_url": "https://s3-media2.fl.yelpcdn.com/bphoto/NojNf0N-FcROFVbJg9dlsw/o.jpg", "categories": [{"alias": "hotdogs", "title": "Fast Food"}], "display_phone": "(509) 865-4015", "phone": "+15098654015", "id": "MSR1luvizAHNlkjYrlBDIw", "is_closed": false, "location": {"city": "Toppenish", "display_address": ["401 W 1st Ave", "Toppenish, WA 98948"], "country": "US", "address2": "", "address3": "", "state": "WA", "address1": "401 W 1st Ave", "zip_code": "98948"}}, {"rating": 3.0, "review_count": 3, "name": "Subway", "transactions": [], "url": "https://www.yelp.com/biz/subway-zillah?adjust_creative=Ag61rKhxaceTrjRZiBYJXg&utm_campaign=yelp_api_v3&utm_medium=api_v3_business_search&utm_source=Ag61rKhxaceTrjRZiBYJXg", "price": "$", "distance": 458.8595605694186, "coordinates": {"latitude": 46.40612, "longitude": -120.2779}, "alias": "subway-zillah", "image_url": "", "categories": [{"alias": "sandwiches", "title": "Sandwiches"}, {"alias": "hotdogs", "title": "Fast Food"}], "display_phone": "(509) 829-3333", "phone": "+15098293333", "id": "jRfv24rbngZk9LweVqILOw", "is_closed": false, "location": {"city": "Zillah", "display_address": ["903 Vintage Valley Pkwy", "Zillah, WA 98953"], "country": "US", "address2": "", "address3": "", "state": "WA", "address1": "903 Vintage Valley Pkwy", "zip_code": "98953"}}, {"rating": 5.0, "review_count": 5, "name": "El Provenir Bakery", "transactions": [], "url": "https://www.yelp.com/biz/el-provenir-bakery-toppenish?adjust_creative=Ag61rKhxaceTrjRZiBYJXg&utm_campaign=yelp_api_v3&utm_medium=api_v3_business_search&utm_source=Ag61rKhxaceTrjRZiBYJXg", "price": "$", "distance": 4678.980944476279, "coordinates": {"latitude": 46.374698638916, "longitude": -120.311515808105}, "alias": "el-provenir-bakery-toppenish", "image_url": "https://s3-media2.fl.yelpcdn.com/bphoto/0kyHFpCZebW4KwWdqSqO_Q/o.jpg", "categories": [{"alias": "bakeries", "title": "Bakeries"}], "display_phone": "(509) 865-8837", "phone": "+15098658837", "id": "hkNIdzw2Tle0D0TU1-asMA", "is_closed": false, "location": {"city": "Toppenish", "display_address": ["209 S Toppenish Ave", "Toppenish, WA 98948"], "country": "US", "address2": "", "address3": "", "state": "WA", "address1": "209 S Toppenish Ave", "zip_code": "98948"}}, {"rating": 3.0, "review_count": 1, "name": "Subway", "transactions": [], "url": "https://www.yelp.com/biz/subway-toppenish?adjust_creative=Ag61rKhxaceTrjRZiBYJXg&utm_campaign=yelp_api_v3&utm_medium=api_v3_business_search&utm_source=Ag61rKhxaceTrjRZiBYJXg", "distance": 5113.209671537402, "coordinates": {"latitude": 46.3745261728764, "longitude": -120.320215076208}, "alias": "subway-toppenish", "image_url": "", "categories": [{"alias": "sandwiches", "title": "Sandwiches"}, {"alias": "hotdogs", "title": "Fast Food"}], "display_phone": "(509) 865-3303", "phone": "+15098653303", "id": "uk_gs57aor7ZuZNGOqNMiw", "is_closed": false, "location": {"city": "Toppenish", "display_address": ["425 S Elm St", "Toppenish, WA 98948"], "country": "US", "address2": null, "address3": null, "state": "WA", "address1": "425 S Elm St", "zip_code": "98948"}}, {"rating": 4.0, "review_count": 14, "name": "Tanjuli Winery", "transactions": [], "url": "https://www.yelp.com/biz/tanjuli-winery-zillah?adjust_creative=Ag61rKhxaceTrjRZiBYJXg&utm_campaign=yelp_api_v3&utm_medium=api_v3_business_search&utm_source=Ag61rKhxaceTrjRZiBYJXg", "price": "$$", "distance": 3075.205010798091, "coordinates": {"latitude": 46.435923948884, "longitude": -120.293099284172}, "alias": "tanjuli-winery-zillah", "image_url": "https://s3-media3.fl.yelpcdn.com/bphoto/ozkOkXujZtAE23MAKccgBw/o.jpg", "categories": [{"alias": "wineries", "title": "Wineries"}], "display_phone": "(509) 654-9753", "phone": "+15096549753", "id": "KsioTjd_QW-6cp-qoBlxNQ", "is_closed": false, "location": {"city": "Zillah", "display_address": ["209 N Bonair Rd", "Zillah, WA 98953"], "country": "US", "address2": "", "address3": "", "state": "WA", "address1": "209 N Bonair Rd", "zip_code": "98953"}}, {"rating": 3.5, "review_count": 16, "name": "Hyatt Vineyards", "transactions": [], "url": "https://www.yelp.com/biz/hyatt-vineyards-zillah?adjust_creative=Ag61rKhxaceTrjRZiBYJXg&utm_campaign=yelp_api_v3&utm_medium=api_v3_business_search&utm_source=Ag61rKhxaceTrjRZiBYJXg", "price": "$$", "distance": 3832.2494055698057, "coordinates": {"latitude": 46.4443016052246, "longitude": -120.283149719238}, "alias": "hyatt-vineyards-zillah", "image_url": "https://s3-media2.fl.yelpcdn.com/bphoto/18X9AdOxLbQFZ6_Q_SkF6Q/o.jpg", "categories": [{"alias": "wineries", "title": "Wineries"}], "display_phone": "(509) 829-6333", "phone": "+15098296333", "id": "E7DK4Sooccew3Z7xO5Vrjg", "is_closed": false, "location": {"city": "Zillah", "display_address": ["2020 Gilbert Rd", "Zillah, WA 98953"], "country": "US", "address2": "", "address3": "", "state": "WA", "address1": "2020 Gilbert Rd", "zip_code": "98953"}}, {"rating": 5.0, "review_count": 3, "name": "Chandler's Conoco", "transactions": [], "url": "https://www.yelp.com/biz/chandlers-conoco-granger?adjust_creative=Ag61rKhxaceTrjRZiBYJXg&utm_campaign=yelp_api_v3&utm_medium=api_v3_business_search&utm_source=Ag61rKhxaceTrjRZiBYJXg", "distance": 10413.255227931018, "coordinates": {"latitude": 46.3459434509277, "longitude": -120.18017578125}, "alias": "chandlers-conoco-granger", "image_url": "", "categories": [{"alias": "convenience", "title": "Convenience Stores"}], "display_phone": "(509) 854-1776", "phone": "+15098541776", "id": "o2Xm1vamPg3yiMlhqCTGFw", "is_closed": false, "location": {"city": "Granger", "display_address": ["1201 Bailey Ave", "Granger, WA 98932"], "country": "US", "address2": "", "address3": "", "state": "WA", "address1": "1201 Bailey Ave", "zip_code": "98932"}}, {"rating": 4.0, "review_count": 38, "name": "Paradisos del Sol Winery", "transactions": [], "url": "https://www.yelp.com/biz/paradisos-del-sol-winery-zillah?adjust_creative=Ag61rKhxaceTrjRZiBYJXg&utm_campaign=yelp_api_v3&utm_medium=api_v3_business_search&utm_source=Ag61rKhxaceTrjRZiBYJXg", "price": "$$", "distance": 3232.1167422153517, "coordinates": {"latitude": 46.4325479742739, "longitude": -120.251777172089}, "alias": "paradisos-del-sol-winery-zillah", "image_url": "https://s3-media1.fl.yelpcdn.com/bphoto/qYlTxo0a_3bglLUMJdhSWw/o.jpg", "categories": [{"alias": "winetours", "title": "Wine Tours"}, {"alias": "winetastingroom", "title": "Wine Tasting Room"}, {"alias": "farms", "title": "Farms"}], "display_phone": "(509) 829-9000", "phone": "+15098299000", "id": "hWn11d2w0aPPldyl0OgSLw", "is_closed": false, "location": {"city": "Zillah", "display_address": ["3230 Highland Dr", "Zillah, WA 98953"], "country": "US", "address2": "", "address3": "", "state": "WA", "address1": "3230 Highland Dr", "zip_code": "98953"}}, {"rating": 3.0, "review_count": 7, "name": "Agate Field Vineyard", "transactions": [], "url": "https://www.yelp.com/biz/agate-field-vineyard-zillah?adjust_creative=Ag61rKhxaceTrjRZiBYJXg&utm_campaign=yelp_api_v3&utm_medium=api_v3_business_search&utm_source=Ag61rKhxaceTrjRZiBYJXg", "price": "$$", "distance": 3849.54473999611, "coordinates": {"latitude": 46.44296, "longitude": -120.2602}, "alias": "agate-field-vineyard-zillah", "image_url": "https://s3-media3.fl.yelpcdn.com/bphoto/X4TM41c6y0BZLlZCtZ3f8A/o.jpg", "categories": [{"alias": "wineries", "title": "Wineries"}], "display_phone": "(509) 910-7032", "phone": "+15099107032", "id": "KrjaW7ZVCUmZYxfbLew4Xg", "is_closed": false, "location": {"city": "Zillah", "display_address": ["2911 Roza Dr", "Zillah, WA 98953"], "country": "US", "address2": "", "address3": "", "state": "WA", "address1": "2911 Roza Dr", "zip_code": "98953"}}, {"rating": 5.0, "review_count": 1, "name": "El Cantarito Mexican Restaurant", "transactions": [], "url": "https://www.yelp.com/biz/el-cantarito-mexican-restaurant-toppenish?adjust_creative=Ag61rKhxaceTrjRZiBYJXg&utm_campaign=yelp_api_v3&utm_medium=api_v3_business_search&utm_source=Ag61rKhxaceTrjRZiBYJXg", "price": "$", "distance": 4768.346054871667, "coordinates": {"latitude": 46.374815, "longitude": -120.3138787}, "alias": "el-cantarito-mexican-restaurant-toppenish", "image_url": "https://s3-media3.fl.yelpcdn.com/bphoto/phHldKI5_BJ5ZNIKbuJsgA/o.jpg", "categories": [{"alias": "mexican", "title": "Mexican"}], "display_phone": "", "phone": "", "id": "9hzDIoMxJlY2Yy2ox0jFNQ", "is_closed": false, "location": {"city": "Toppenish", "display_address": ["208 W 1st Ave", "Toppenish, WA 98948"], "country": "US", "address2": "", "address3": "", "state": "WA", "address1": "208 W 1st Ave", "zip_code": "98948"}}, {"rating": 2.0, "review_count": 7, "name": "McDonald's", "transactions": [], "url": "https://www.yelp.com/biz/mcdonalds-toppenish?adjust_creative=Ag61rKhxaceTrjRZiBYJXg&utm_campaign=yelp_api_v3&utm_medium=api_v3_business_search&utm_source=Ag61rKhxaceTrjRZiBYJXg", "price": "$", "distance": 5142.33079302166, "coordinates": {"latitude": 46.375428, "longitude": -120.322942}, "alias": "mcdonalds-toppenish", "image_url": "https://s3-media3.fl.yelpcdn.com/bphoto/1MXFTvudG0bfIOI3qVlXvg/o.jpg", "categories": [{"alias": "burgers", "title": "Burgers"}, {"alias": "hotdogs", "title": "Fast Food"}, {"alias": "coffee", "title": "Coffee & Tea"}], "display_phone": "(509) 865-3771", "phone": "+15098653771", "id": "xuURk3mjlwiKiAV-zcjHOg", "is_closed": false, "location": {"city": "Toppenish", "display_address": ["739 W 1st Ave", "Toppenish, WA 98948"], "country": "US", "address2": "", "address3": "", "state": "WA", "address1": "739 W 1st Ave", "zip_code": "98948"}}, {"rating": 3.5, "review_count": 20, "name": "SIlver Lake Winery", "transactions": [], "url": "https://www.yelp.com/biz/silver-lake-winery-zillah?adjust_creative=Ag61rKhxaceTrjRZiBYJXg&utm_campaign=yelp_api_v3&utm_medium=api_v3_business_search&utm_source=Ag61rKhxaceTrjRZiBYJXg", "price": "$$", "distance": 5540.736012325633, "coordinates": {"latitude": 46.453800201416, "longitude": -120.243186950684}, "alias": "silver-lake-winery-zillah", "image_url": "https://s3-media2.fl.yelpcdn.com/bphoto/hYh8Lg0_0bnK41lLWPnfRg/o.jpg", "categories": [{"alias": "wineries", "title": "Wineries"}], "display_phone": "(509) 829-6235", "phone": "+15098296235", "id": "UcAhaL5FgERVnmxuAHQQYA", "is_closed": false, "location": {"city": "Zillah", "display_address": ["1500 Vintage Rd", "Zillah, WA 98953"], "country": "US", "address2": "", "address3": "", "state": "WA", "address1": "1500 Vintage Rd", "zip_code": "98953"}}, {"rating": 5.0, "review_count": 2, "name": "Eaton Hill Winery", "transactions": [], "url": "https://www.yelp.com/biz/eaton-hill-winery-granger?adjust_creative=Ag61rKhxaceTrjRZiBYJXg&utm_campaign=yelp_api_v3&utm_medium=api_v3_business_search&utm_source=Ag61rKhxaceTrjRZiBYJXg", "distance": 8705.203088751257, "coordinates": {"latitude": 46.37458, "longitude": -120.17927}, "alias": "eaton-hill-winery-granger", "image_url": "", "categories": [{"alias": "wineries", "title": "Wineries"}], "display_phone": "(509) 854-2220", "phone": "+15098542220", "id": "CQ7CwDLlqS9W0Gxfs14NSQ", "is_closed": false, "location": {"city": "Granger", "display_address": ["530 Gurley Rd", "Granger, WA 98932"], "country": "US", "address2": "", "address3": "", "state": "WA", "address1": "530 Gurley Rd", "zip_code": "98932"}}]}